[
	{
		"url": "http://speedtest.labgroup.com:8080/speedtest/upload.php",
		"lat": "49.7877",
		"lon": "6.0657",
		"distance": 180,
		"name": "Bissen",
		"country": "Luxembourg",
		"cc": "LU",
		"sponsor": "Lab Luxembourg S.A",
		"id": "5515",
		"preferred": 0,
		"https_functional": 1,
		"host": "speedtest.labgroup.com.prod.hosts.ooklaserver.net:8080"
	},
	{
		"url": "https://pme.speedtest.contabo.net:8080/speedtest/upload.php",
		"lat": "50.8198",
		"lon": "-1.0880",
		"distance": 204,
		"name": "Portsmouth",
		"country": "United Kingdom",
		"cc": "GB",
		"sponsor": "Contabo",
		"id": "50235",
		"preferred": 0,
		"https_functional": 1,
		"host": "pme.speedtest.contabo.net:8080"
	},
	{
		"url": "http://lon-ix1-tptest1.31173.se:8080/speedtest/upload.php",
		"lat": "51.5171",
		"lon": "-0.1062",
		"distance": 213,
		"name": "London",
		"country": "United Kingdom",
		"cc": "GB",
		"sponsor": "31173 Services AB",
		"id": "23344",
		"preferred": 0,
		"https_functional": 1,
		"host": "lon-ix1-tptest1.31173.se:8080"
	},
	{
		"url": "https://speedtest.slough.oxide.ox.ac.uk:8080/speedtest/upload.php",
		"lat": "51.6708",
		"lon": "-1.2880",
		"distance": 252,
		"name": "Abingdon",
		"country": "United Kingdom",
		"cc": "GB",
		"sponsor": "University of Oxford, IT Services",
		"id": "55637",
		"preferred": 0,
		"https_functional": 1,
		"host": "speedtest.slough.oxide.ox.ac.uk:8080"
	},
	{
		"url": "https://dus.speedtest.contabo.net:8080/speedtest/upload.php",
		"lat": "51.2256",
		"lon": "6.7828",
		"distance": 256,
		"name": "Dusseldorf",
		"country": "Germany",
		"cc": "DE",
		"sponsor": "Contabo",
		"id": "35154",
		"preferred": 0,
		"https_functional": 1,
		"host": "dus.speedtest.contabo.net:8080"
	},
	{
		"url": "http://ams-eq6-tptest1.31173.se:8080/speedtest/upload.php",
		"lat": "52.3667",
		"lon": "4.9000",
		"distance": 267,
		"name": "Amsterdam",
		"country": "Netherlands",
		"cc": "NL",
		"sponsor": "31173 Services AB",
		"id": "23094",
		"preferred": 0,
		"https_functional": 1,
		"host": "ams-eq6-tptest1.31173.se:8080"
	},
	{
		"url": "http://nl.speedtest.labixe.net:8080/speedtest/upload.php",
		"lat": "52.3667",
		"lon": "4.9000",
		"distance": 267,
		"name": "Amsterdam",
		"country": "Netherlands",
		"cc": "NL",
		"sponsor": "Labixe Ltd",
		"id": "54151",
		"preferred": 0,
		"https_functional": 1,
		"host": "nl.speedtest.labixe.net.prod.hosts.ooklaserver.net:8080"
	},
	{
		"url": "http://fra-eq5-tptest1.31173.se:8080/speedtest/upload.php",
		"lat": "50.1109",
		"lon": "8.6821",
		"distance": 298,
		"name": "Frankfurt",
		"country": "Germany",
		"cc": "DE",
		"sponsor": "31173 Services AB",
		"id": "23095",
		"preferred": 0,
		"https_functional": 1,
		"host": "fra-eq5-tptest1.31173.se:8080"
	},
	{
		"url": "http://speed1.swhab.net:8080/speedtest/upload.php",
		"lat": "50.1109",
		"lon": "8.6821",
		"distance": 298,
		"name": "Frankfurt",
		"country": "Germany",
		"cc": "DE",
		"sponsor": "HABNET",
		"id": "46559",
		"preferred": 0,
		"https_functional": 1,
		"host": "speed1.swhab.net.prod.hosts.ooklaserver.net:8080"
	},
	{
		"url": "http://speedtest.shinternet.ch:8080/speedtest/upload.php",
		"lat": "47.6959",
		"lon": "8.6380",
		"distance": 301,
		"name": "Schaffhausen",
		"country": "Switzerland",
		"cc": "CH",
		"sponsor": "sasag Kabelkommunikation AG",
		"id": "27542",
		"preferred": 0,
		"https_functional": 1,
		"host": "speedtest.shinternet.ch:8080"
	},
	{
		"url": "http://speedtest.kabeltex.nl:8080/speedtest/upload.php",
		"lat": "53.0546",
		"lon": "4.7997",
		"distance": 309,
		"name": "Den Burg",
		"country": "Netherlands",
		"cc": "NL",
		"sponsor": "Kabeltex B.V.",
		"id": "21726",
		"preferred": 0,
		"https_functional": 1,
		"host": "speedtest.kabeltex.nl.prod.hosts.ooklaserver.net:8080"
	},
	{
		"url": "http://speedtest.hahosting.com:8080/speedtest/upload.php",
		"lat": "53.2301",
		"lon": "-1.2801",
		"distance": 341,
		"name": "Sheffield",
		"country": "United Kingdom",
		"cc": "GB",
		"sponsor": "High Availability Hosting Ltd",
		"id": "4657",
		"preferred": 0,
		"https_functional": 1,
		"host": "speedtest.hahosting.com.prod.hosts.ooklaserver.net:8080"
	},
	{
		"url": "https://speedtest.kabelnoord.net:8080/speedtest/upload.php",
		"lat": "53.3241",
		"lon": "6.0015",
		"distance": 347,
		"name": "Dokkum",
		"country": "Netherlands",
		"cc": "NL",
		"sponsor": "Kabelnoord",
		"id": "14080",
		"preferred": 0,
		"https_functional": 1,
		"host": "speedtest.kabelnoord.net:8080"
	},
	{
		"url": "http://speedtestto2.tilab.com:8080/speedtest/upload.php",
		"lat": "45.0709",
		"lon": "7.6858",
		"distance": 364,
		"name": "Turin",
		"country": "Italy",
		"cc": "IT",
		"sponsor": "TiLab",
		"id": "45691",
		"preferred": 0,
		"https_functional": 1,
		"host": "speedtestto2.tilab.com.prod.hosts.ooklaserver.net:8080"
	},
	{
		"url": "https://speedtest.goline.ch:8080/speedtest/upload.php",
		"lat": "45.8530",
		"lon": "8.9367",
		"distance": 372,
		"name": "Stabio",
		"country": "Switzerland",
		"cc": "CH",
		"sponsor": "GOLINE SA",
		"id": "37146",
		"preferred": 0,
		"https_functional": 1,
		"host": "speedtest.goline.ch:8080"
	},
	{
		"url": "https://speedtest.mercurylabs.ch:8080/speedtest/upload.php",
		"lat": "45.8713",
		"lon": "8.9841",
		"distance": 373,
		"name": "Mendrisio",
		"country": "Switzerland",
		"cc": "CH",
		"sponsor": "Mercury Labs SAGL",
		"id": "10492",
		"preferred": 0,
		"https_functional": 1,
		"host": "speedtest.mercurylabs.ch.prod.hosts.ooklaserver.net:8080"
	},
	{
		"url": "https://nue.speedtest.contabo.net:8080/speedtest/upload.php",
		"lat": "49.4500",
		"lon": "11.0833",
		"distance": 397,
		"name": "Nuremberg",
		"country": "Germany",
		"cc": "DE",
		"sponsor": "Contabo",
		"id": "20478",
		"preferred": 0,
		"https_functional": 1,
		"host": "nue.speedtest.contabo.net:8080"
	},
	{
		"url": "http://speed.speedymilan.net:8080/speedtest/upload.php",
		"lat": "45.4640",
		"lon": "9.1916",
		"distance": 398,
		"name": "Milan",
		"country": "Italy",
		"cc": "IT",
		"sponsor": "P-Lab",
		"id": "26415",
		"preferred": 0,
		"https_functional": 1,
		"host": "speed.speedymilan.net.prod.hosts.ooklaserver.net:8080"
	},
	{
		"url": "https://muc.speedtest.contabo.net:8080/speedtest/upload.php",
		"lat": "48.1333",
		"lon": "11.5667",
		"distance": 426,
		"name": "Munich",
		"country": "Germany",
		"cc": "DE",
		"sponsor": "Contabo",
		"id": "21514",
		"preferred": 0,
		"https_functional": 1,
		"host": "muc.speedtest.contabo.net:8080"
	},
	{
		"url": "http://speedtestmi2.tilab.com:8080/speedtest/upload.php",
		"lat": "45.5416",
		"lon": "10.2118",
		"distance": 435,
		"name": "Brescia",
		"country": "Italy",
		"cc": "IT",
		"sponsor": "TILab",
		"id": "45279",
		"preferred": 0,
		"https_functional": 1,
		"host": "speedtestmi2.tilab.com.prod.hosts.ooklaserver.net:8080"
	},
	{
		"url": "http://speedtest.tetanet.cz:8080/speedtest/upload.php",
		"lat": "50.6611",
		"lon": "14.0531",
		"distance": 537,
		"name": "Usti nad Labem",
		"country": "Czechia",
		"cc": "CZ",
		"sponsor": "TETA s.r.o.",
		"id": "9828",
		"preferred": 0,
		"https_functional": 1,
		"host": "speedtest.tetanet.cz.prod.hosts.ooklaserver.net:8080"
	},
	{
		"url": "http://speedtest.amigonet.cz:8080/speedtest/upload.php",
		"lat": "50.6611",
		"lon": "14.0531",
		"distance": 537,
		"name": "Ústí nad Labem",
		"country": "Czechia",
		"cc": "CZ",
		"sponsor": "AmigoNet s.r.o.",
		"id": "17301",
		"preferred": 0,
		"https_functional": 1,
		"host": "speedtest.amigonet.cz.prod.hosts.ooklaserver.net:8080"
	},
	{
		"url": "https://speedcheck.liwest.at:8080/speedtest/upload.php",
		"lat": "48.3031",
		"lon": "14.2906",
		"distance": 548,
		"name": "Linz",
		"country": "Austria",
		"cc": "AT",
		"sponsor": "LIWEST Kabelmedien GmbH",
		"id": "818",
		"preferred": 0,
		"https_functional": 1,
		"host": "speedcheck.liwest.at:8080"
	},
	{
		"url": "http://internetprotabor.cz:8080/speedtest/upload.php",
		"lat": "49.4000",
		"lon": "14.6500",
		"distance": 558,
		"name": "Tabor",
		"country": "Czechia",
		"cc": "CZ",
		"sponsor": "UNT.cz - Kompletni IT sluzby",
		"id": "8652",
		"preferred": 0,
		"https_functional": 1,
		"host": "internetprotabor.cz.prod.hosts.ooklaserver.net:8080"
	},
	{
		"url": "http://speedtest.ralskonet.cz:8080/speedtest/upload.php",
		"lat": "50.7653",
		"lon": "14.7605",
		"distance": 569,
		"name": "Jablonné v Podještědí",
		"country": "Czechia",
		"cc": "CZ",
		"sponsor": "Ralskonet s.r.o.",
		"id": "22838",
		"preferred": 0,
		"https_functional": 1,
		"host": "speedtest.ralskonet.cz.prod.hosts.ooklaserver.net:8080"
	},
	{
		"url": "http://speedtest1.converged.co.uk:8080/speedtest/upload.php",
		"lat": "57.1526",
		"lon": "-2.1100",
		"distance": 603,
		"name": "Aberdeen",
		"country": "United Kingdom",
		"cc": "GB",
		"sponsor": "Converged Communication Solutions Limited",
		"id": "9171",
		"preferred": 0,
		"https_functional": 1,
		"host": "speedtest1.converged.co.uk.prod.hosts.ooklaserver.net:8080"
	},
	{
		"url": "http://spdt1.comanet.cz:8080/speedtest/upload.php",
		"lat": "50.6278",
		"lon": "15.6103",
		"distance": 605,
		"name": "Vrchlabi",
		"country": "Czechia",
		"cc": "CZ",
		"sponsor": "Ing. Leos Janouch",
		"id": "4507",
		"preferred": 0,
		"https_functional": 1,
		"host": "spdt1.comanet.cz.prod.hosts.ooklaserver.net:8080"
	},
	{
		"url": "http://speedtest.add39.net:8080/speedtest/upload.php",
		"lat": "42.8767",
		"lon": "11.6727",
		"distance": 610,
		"name": "Abbadia San Salvatore",
		"country": "Italy",
		"cc": "IT",
		"sponsor": "ADD39 - Coding SRL",
		"id": "26941",
		"preferred": 0,
		"https_functional": 1,
		"host": "speedtest.add39.net.prod.hosts.ooklaserver.net:8080"
	},
	{
		"url": "http://speedtest1.binz-kabel.de:8080/speedtest/upload.php",
		"lat": "54.4000",
		"lon": "13.6000",
		"distance": 616,
		"name": "Binz",
		"country": "Germany",
		"cc": "DE",
		"sponsor": "KABEL-TV-BINZ",
		"id": "3865",
		"preferred": 0,
		"https_functional": 1,
		"host": "speedtest1.binz-kabel.de.prod.hosts.ooklaserver.net:8080"
	},
	{
		"url": "http://speedtest1.gigabit.dk:8080/speedtest/upload.php",
		"lat": "55.7333",
		"lon": "12.3667",
		"distance": 636,
		"name": "Ballerup",
		"country": "Denmark",
		"cc": "DK",
		"sponsor": "Gigabit",
		"id": "5669",
		"preferred": 0,
		"https_functional": 1,
		"host": "speedtest1.gigabit.dk.prod.hosts.ooklaserver.net:8080"
	},
	{
		"url": "http://speedtest.ktcz.eu:8080/speedtest/upload.php",
		"lat": "49.9019",
		"lon": "16.4473",
		"distance": 638,
		"name": "Česká Třebová",
		"country": "Czechia",
		"cc": "CZ",
		"sponsor": "KABELOVÁ TELEVIZE CZ s.r.o.",
		"id": "50749",
		"preferred": 0,
		"https_functional": 1,
		"host": "speedtest.ktcz.eu.prod.hosts.ooklaserver.net:8080"
	},
	{
		"url": "http://mmo-spv-speedtest1.bahnhof.net:8080/speedtest/upload.php",
		"lat": "55.5833",
		"lon": "13.0333",
		"distance": 648,
		"name": "Malmo",
		"country": "Sweden",
		"cc": "SE",
		"sponsor": "Bahnhof AB",
		"id": "34338",
		"preferred": 0,
		"https_functional": 1,
		"host": "mmo-spv-speedtest1.bahnhof.net.prod.hosts.ooklaserver.net:8080"
	},
	{
		"url": "http://speedtest.mlm.telenor.se:8080/speedtest/upload.php",
		"lat": "55.5833",
		"lon": "13.0333",
		"distance": 648,
		"name": "Malmo",
		"country": "Sweden",
		"cc": "SE",
		"sponsor": "Telenor AB",
		"id": "35926",
		"preferred": 0,
		"https_functional": 1,
		"host": "speedtest.mlm.telenor.se.prod.hosts.ooklaserver.net:8080"
	},
	{
		"url": "http://speedtest.smnt.pl:8080/speedtest/upload.php",
		"lat": "52.3182",
		"lon": "16.1283",
		"distance": 650,
		"name": "Nowy Tomyśl",
		"country": "Poland",
		"cc": "PL",
		"sponsor": "Telewizja Kablowa SMNT",
		"id": "47590",
		"preferred": 0,
		"https_functional": 1,
		"host": "speedtest.smnt.pl.prod.hosts.ooklaserver.net:8080"
	},
	{
		"url": "http://speedtestrm2.tilab.com:8080/speedtest/upload.php",
		"lat": "41.9000",
		"lon": "12.5000",
		"distance": 688,
		"name": "Rome",
		"country": "Italy",
		"cc": "IT",
		"sponsor": "TILab",
		"id": "40838",
		"preferred": 0,
		"https_functional": 1,
		"host": "speedtestrm2.tilab.com.prod.hosts.ooklaserver.net:8080"
	},
	{
		"url": "http://speedtest.raab.cz:8080/speedtest/upload.php",
		"lat": "49.3992",
		"lon": "17.6740",
		"distance": 694,
		"name": "Bystrice pod Hostynem",
		"country": "Czechia",
		"cc": "CZ",
		"sponsor": "RAAB Computer s.r.o.",
		"id": "29050",
		"preferred": 0,
		"https_functional": 1,
		"host": "speedtest.raab.cz.prod.hosts.ooklaserver.net:8080"
	},
	{
		"url": "http://speedtest.tkk.net.pl:8080/speedtest/upload.php",
		"lat": "54.2000",
		"lon": "16.1833",
		"distance": 699,
		"name": "Koszalin",
		"country": "Poland",
		"cc": "PL",
		"sponsor": "Telewizja Kablowa Koszalin Sp. z o.o.",
		"id": "994",
		"preferred": 0,
		"https_functional": 1,
		"host": "speedtest.tkk.net.pl.prod.hosts.ooklaserver.net:8080"
	},
	{
		"url": "https://speedtest.ktk.cz:8080/speedtest/upload.php",
		"lat": "49.5995",
		"lon": "18.1448",
		"distance": 714,
		"name": "Koprivnice",
		"country": "Czechia",
		"cc": "CZ",
		"sponsor": "Kabelova televize Koprivnice",
		"id": "40516",
		"preferred": 0,
		"https_functional": 1,
		"host": "speedtest.ktk.cz:8080"
	},
	{
		"url": "http://gbg-shg-speedtest1.bahnhof.net:8080/speedtest/upload.php",
		"lat": "57.7000",
		"lon": "11.9667",
		"distance": 728,
		"name": "Gothenburg",
		"country": "Sweden",
		"cc": "SE",
		"sponsor": "Bahnhof AB",
		"id": "34190",
		"preferred": 0,
		"https_functional": 1,
		"host": "gbg-shg-speedtest1.bahnhof.net.prod.hosts.ooklaserver.net:8080"
	},
	{
		"url": "http://speedtest.gbg.telenor.se:8080/speedtest/upload.php",
		"lat": "57.7089",
		"lon": "11.9746",
		"distance": 729,
		"name": "Göteborg",
		"country": "Sweden",
		"cc": "SE",
		"sponsor": "Telenor AB",
		"id": "35925",
		"preferred": 0,
		"https_functional": 1,
		"host": "speedtest.gbg.telenor.se.prod.hosts.ooklaserver.net:8080"
	},
	{
		"url": "https://speedtest.yecla.interfibra.es:8080/speedtest/upload.php",
		"lat": "38.6122",
		"lon": "-1.1101",
		"distance": 729,
		"name": "Yecla",
		"country": "Spain",
		"cc": "ES",
		"sponsor": "Cableworld",
		"id": "31544",
		"preferred": 0,
		"https_functional": 1,
		"host": "speedtest.yecla.interfibra.es:8080"
	},
	{
		"url": "http://speedtest.optikabel.pl:8080/speedtest/upload.php",
		"lat": "49.7484",
		"lon": "18.6332",
		"distance": 736,
		"name": "Cieszyn",
		"country": "Poland",
		"cc": "PL",
		"sponsor": "OptiKabel Telecom Sp. z o.o.",
		"id": "13209",
		"preferred": 0,
		"https_functional": 1,
		"host": "speedtest.optikabel.pl.prod.hosts.ooklaserver.net:8080"
	},
	{
		"url": "http://speedsabaudia.teleimpiantisrl.net:8080/speedtest/upload.php",
		"lat": "41.3016",
		"lon": "13.0276",
		"distance": 737,
		"name": "Sabaudia",
		"country": "Italy",
		"cc": "IT",
		"sponsor": "Teleimpianti srl",
		"id": "31499",
		"preferred": 0,
		"https_functional": 1,
		"host": "speedsabaudia.teleimpiantisrl.net.prod.hosts.ooklaserver.net:8080"
	},
	{
		"url": "http://speed.telecablesantapola.es:8080/speedtest/upload.php",
		"lat": "38.1965",
		"lon": "-0.5612",
		"distance": 752,
		"name": "Santa Pola",
		"country": "Spain",
		"cc": "ES",
		"sponsor": "TELECABLE FIBRA S.L.U.",
		"id": "25386",
		"preferred": 0,
		"https_functional": 1,
		"host": "speed.telecablesantapola.es:8080"
	},
	{
		"url": "http://stest1.elta-kabel.com:8080/speedtest/upload.php",
		"lat": "44.7667",
		"lon": "17.1833",
		"distance": 756,
		"name": "Banja Luka",
		"country": "Bosnia and Herzegovina",
		"cc": "BA",
		"sponsor": "Elta Kabel d.o.o.",
		"id": "10937",
		"preferred": 0,
		"https_functional": 1,
		"host": "stest1.elta-kabel.com.prod.hosts.ooklaserver.net:8080"
	},
	{
		"url": "http://speedtest.ansluten.net:8080/speedtest/upload.php",
		"lat": "56.8790",
		"lon": "14.8059",
		"distance": 759,
		"name": "Växjö",
		"country": "Sweden",
		"cc": "SE",
		"sponsor": "Ansluten Hosting i Sverige AB",
		"id": "59529",
		"preferred": 0,
		"https_functional": 1,
		"host": "speedtest.ansluten.net.prod.hosts.ooklaserver.net:8080"
	},
	{
		"url": "http://speedtest2.tvtom.pl:8080/speedtest/upload.php",
		"lat": "50.3217",
		"lon": "19.1949",
		"distance": 761,
		"name": "Dabrowa Górnicza",
		"country": "Poland",
		"cc": "PL",
		"sponsor": "TOM MEDIA",
		"id": "56027",
		"preferred": 0,
		"https_functional": 1,
		"host": "speedtest2.tvtom.pl.prod.hosts.ooklaserver.net:8080"
	},
	{
		"url": "http://st.dvblab.com:8080/speedtest/upload.php",
		"lat": "38.0767",
		"lon": "-0.7390",
		"distance": 761,
		"name": "Benijófar",
		"country": "Spain",
		"cc": "ES",
		"sponsor": "DVBLab Communication",
		"id": "17797",
		"preferred": 0,
		"https_functional": 1,
		"host": "st.dvblab.com:8080"
	},
	{
		"url": "http://ookla.mtk-tv.pl:8080/speedtest/upload.php",
		"lat": "50.5833",
		"lon": "19.3333",
		"distance": 768,
		"name": "Myszkow",
		"country": "Poland",
		"cc": "PL",
		"sponsor": "Myszkowska Telewizja Kablowa sp. z.o.o.",
		"id": "56230",
		"preferred": 0,
		"https_functional": 1,
		"host": "ookla.mtk-tv.pl.prod.hosts.ooklaserver.net:8080"
	},
	{
		"url": "https://speedtest-mur.cableworld.es:8080/speedtest/upload.php",
		"lat": "37.9861",
		"lon": "-1.1303",
		"distance": 772,
		"name": "Murcia",
		"country": "Spain",
		"cc": "ES",
		"sponsor": "Cableworld",
		"id": "23769",
		"preferred": 0,
		"https_functional": 1,
		"host": "speedtest-mur.cableworld.es:8080"
	},
	{
		"url": "http://st2.tkchopin.pl:8080/speedtest/upload.php",
		"lat": "54.6003",
		"lon": "18.2330",
		"distance": 786,
		"name": "Wejherowo",
		"country": "Poland",
		"cc": "PL",
		"sponsor": "CHOPIN Telewizja Kablowa",
		"id": "52292",
		"preferred": 0,
		"https_functional": 1,
		"host": "st2.tkchopin.pl.prod.hosts.ooklaserver.net:8080"
	},
	{
		"url": "http://speedtest2.abaks.pl:8080/speedtest/upload.php",
		"lat": "54.2622",
		"lon": "18.6362",
		"distance": 792,
		"name": "Pruszcz Gdanski",
		"country": "Poland",
		"cc": "PL",
		"sponsor": "ABAKS",
		"id": "40209",
		"preferred": 0,
		"https_functional": 1,
		"host": "speedtest2.abaks.pl:8080"
	},
	{
		"url": "http://speedtest2.tczew.net.pl:8080/speedtest/upload.php",
		"lat": "54.0919",
		"lon": "18.7773",
		"distance": 793,
		"name": "Tczew",
		"country": "Poland",
		"cc": "PL",
		"sponsor": "Telkab sp. z o.o.",
		"id": "24668",
		"preferred": 0,
		"https_functional": 1,
		"host": "speedtest2.tczew.net.pl.prod.hosts.ooklaserver.net:8080"
	},
	{
		"url": "http://speedtest.lokapsos.es:8080/speedtest/upload.php",
		"lat": "37.6088",
		"lon": "-0.8818",
		"distance": 795,
		"name": "La Union",
		"country": "Spain",
		"cc": "ES",
		"sponsor": "CableUnión",
		"id": "37040",
		"preferred": 0,
		"https_functional": 1,
		"host": "speedtest.lokapsos.es.prod.hosts.ooklaserver.net:8080"
	},
	{
		"url": "http://test.wiknet.pl:8080/speedtest/upload.php",
		"lat": "49.6090",
		"lon": "19.9672",
		"distance": 796,
		"name": "Rabka-Zdrój",
		"country": "Poland",
		"cc": "PL",
		"sponsor": "STUDIO WIK Sp. z o.o.",
		"id": "38184",
		"preferred": 0,
		"https_functional": 1,
		"host": "test.wiknet.pl.prod.hosts.ooklaserver.net:8080"
	},
	{
		"url": "http://speedtest.habland.es:8080/speedtest/upload.php",
		"lat": "37.8664",
		"lon": "-2.5396",
		"distance": 798,
		"name": "Huéscar",
		"country": "Spain",
		"cc": "ES",
		"sponsor": "Habland",
		"id": "28281",
		"preferred": 0,
		"https_functional": 1,
		"host": "speedtest.habland.es.prod.hosts.ooklaserver.net:8080"
	},
	{
		"url": "http://speedtestna2.tilab.com:8080/speedtest/upload.php",
		"lat": "40.8518",
		"lon": "14.2681",
		"distance": 804,
		"name": "Naples",
		"country": "Italy",
		"cc": "IT",
		"sponsor": "TILab",
		"id": "45277",
		"preferred": 0,
		"https_functional": 1,
		"host": "speedtestna2.tilab.com.prod.hosts.ooklaserver.net:8080"
	},
	{
		"url": "http://speedtest.beconet.es:8080/speedtest/upload.php",
		"lat": "37.9671",
		"lon": "-4.4555",
		"distance": 826,
		"name": "Pedro Abad",
		"country": "Spain",
		"cc": "ES",
		"sponsor": "BECONET FIBRA, S.L.",
		"id": "45317",
		"preferred": 0,
		"https_functional": 1,
		"host": "speedtest.beconet.es.prod.hosts.ooklaserver.net:8080"
	},
	{
		"url": "http://speedtestsalerno.wirlabtlc.com:8080/speedtest/upload.php",
		"lat": "40.6833",
		"lon": "14.7667",
		"distance": 830,
		"name": "Salerno",
		"country": "Italy",
		"cc": "IT",
		"sponsor": "WirLab",
		"id": "7347",
		"preferred": 0,
		"https_functional": 1,
		"host": "speedtestsalerno.wirlabtlc.com.prod.hosts.ooklaserver.net:8080"
	},
	{
		"url": "http://abp.pl:8080/speedtest/upload.php",
		"lat": "53.2357",
		"lon": "20.1800",
		"distance": 830,
		"name": "Dzialdowo",
		"country": "Poland",
		"cc": "PL",
		"sponsor": "ABP COMPUTER",
		"id": "11887",
		"preferred": 0,
		"https_functional": 1,
		"host": "abp.pl.prod.hosts.ooklaserver.net:8080"
	},
	{
		"url": "http://h2speedtest.cablexnet.net:8080/speedtest/upload.php",
		"lat": "38.8800",
		"lon": "-6.9700",
		"distance": 830,
		"name": "Badajoz",
		"country": "Spain",
		"cc": "ES",
		"sponsor": "CABLEX",
		"id": "54549",
		"preferred": 0,
		"https_functional": 1,
		"host": "h2speedtest.cablexnet.net.prod.hosts.ooklaserver.net:8080"
	},
	{
		"url": "http://sprk1.radiocable.net:8080/speedtest/upload.php",
		"lat": "37.1773",
		"lon": "-3.5986",
		"distance": 861,
		"name": "Granada",
		"country": "Spain",
		"cc": "ES",
		"sponsor": "RADIOKABLE",
		"id": "11991",
		"preferred": 0,
		"https_functional": 1,
		"host": "sprk1.radiocable.net.prod.hosts.ooklaserver.net:8080"
	},
	{
		"url": "http://speedtest3.djezzy.dz/speedtest/upload.php",
		"lat": "36.9142",
		"lon": "7.7427",
		"distance": 870,
		"name": "Annaba",
		"country": "Algeria",
		"cc": "DZ",
		"sponsor": "DJEZZY",
		"id": "31853",
		"preferred": 0,
		"https_functional": 1,
		"host": "speedtest3.djezzy.dz.prod.hosts.ooklaserver.net:8080"
	},
	{
		"url": "http://speedtest2.bartsat.pl:8080/speedtest/upload.php",
		"lat": "54.2533",
		"lon": "20.8081",
		"distance": 874,
		"name": "Bartoszyce",
		"country": "Poland",
		"cc": "PL",
		"sponsor": "Telewizja Kablowa BART-SAT",
		"id": "30582",
		"preferred": 0,
		"https_functional": 1,
		"host": "speedtest2.bartsat.pl.prod.hosts.ooklaserver.net:8080"
	},
	{
		"url": "http://speedtest.internet-x.hu:8080/speedtest/upload.php",
		"lat": "46.6790",
		"lon": "21.0910",
		"distance": 882,
		"name": "Békéscsaba",
		"country": "Hungary",
		"cc": "HU",
		"sponsor": "InterNet-X Magyarország Kft.",
		"id": "17839",
		"preferred": 0,
		"https_functional": 1,
		"host": "speedtest.internet-x.hu.prod.hosts.ooklaserver.net:8080"
	},
	{
		"url": "http://speedtest.instalnet.pl:8080/speedtest/upload.php",
		"lat": "50.9333",
		"lon": "22.2167",
		"distance": 894,
		"name": "Krasnik",
		"country": "Poland",
		"cc": "PL",
		"sponsor": "Instalnet Szabat Rydzewski Sp. J.",
		"id": "7952",
		"preferred": 0,
		"https_functional": 1,
		"host": "speedtest.instalnet.pl.prod.hosts.ooklaserver.net:8080"
	},
	{
		"url": "https://speedtest-lab.meo.pt:8080/speedtest/upload.php",
		"lat": "38.6400",
		"lon": "-9.1502",
		"distance": 908,
		"name": "Corroios",
		"country": "Portugal",
		"cc": "PT",
		"sponsor": "MEO LAB",
		"id": "30843",
		"preferred": 0,
		"https_functional": 1,
		"host": "speedtest-lab.meo.pt:8080"
	},
	{
		"url": "http://st1.scoon.pl:8080/speedtest/upload.php",
		"lat": "49.7839",
		"lon": "22.7678",
		"distance": 920,
		"name": "Przemysl",
		"country": "Poland",
		"cc": "PL",
		"sponsor": "Scoon Hardware Lab",
		"id": "10396",
		"preferred": 0,
		"https_functional": 1,
		"host": "st1.scoon.pl.prod.hosts.ooklaserver.net:8080"
	},
	{
		"url": "https://speed-klaipeda.telia.lt:8080/speedtest/upload.php",
		"lat": "55.7000",
		"lon": "21.1333",
		"distance": 921,
		"name": "Klaipeda",
		"country": "Lithuania",
		"cc": "LT",
		"sponsor": "Telia Lietuva, AB",
		"id": "1385",
		"preferred": 0,
		"https_functional": 1,
		"host": "speed-klaipeda.telia.lt:8080"
	},
	{
		"url": "http://speed.telecablecartaya.es:8080/speedtest/upload.php",
		"lat": "37.2830",
		"lon": "-7.1507",
		"distance": 932,
		"name": "Cartaya",
		"country": "Spain",
		"cc": "ES",
		"sponsor": "Telecable Cartaya S.L.",
		"id": "35379",
		"preferred": 0,
		"https_functional": 1,
		"host": "speed.telecablecartaya.es.prod.hosts.ooklaserver.net:8080"
	},
	{
		"url": "http://sto-ste-speedtest1.bahnhof.se:8080/speedtest/upload.php",
		"lat": "59.3294",
		"lon": "18.0686",
		"distance": 960,
		"name": "Stockholm",
		"country": "Sweden",
		"cc": "SE",
		"sponsor": "Bahnhof AB",
		"id": "34024",
		"preferred": 0,
		"https_functional": 1,
		"host": "sto-ste-speedtest1.bahnhof.se.prod.hosts.ooklaserver.net:8080"
	},
	{
		"url": "https://se-speedt02.hy.nis.telia.net:8080/speedtest/upload.php",
		"lat": "59.3294",
		"lon": "18.0686",
		"distance": 960,
		"name": "Stockholm",
		"country": "Sweden",
		"cc": "SE",
		"sponsor": "Telia Sweden AB",
		"id": "45936",
		"preferred": 0,
		"https_functional": 1,
		"host": "se-speedt02.hy.nis.telia.net.prod.hosts.ooklaserver.net:8080"
	},
	{
		"url": "http://speedtest.telenor.se:8080/speedtest/upload.php",
		"lat": "59.3294",
		"lon": "18.0686",
		"distance": 960,
		"name": "Stockholm",
		"country": "Sweden",
		"cc": "SE",
		"sponsor": "Telenor AB",
		"id": "34441",
		"preferred": 0,
		"https_functional": 1,
		"host": "speedtest.telenor.se.prod.hosts.ooklaserver.net:8080"
	},
	{
		"url": "http://speed.alienlabs.in.ua:8080/speedtest/upload.php",
		"lat": "51.4840",
		"lon": "23.8661",
		"distance": 967,
		"name": "Svityaz",
		"country": "Ukraine",
		"cc": "UA",
		"sponsor": "Alien Labs",
		"id": "29130",
		"preferred": 0,
		"https_functional": 1,
		"host": "speed.alienlabs.in.ua:8080"
	},
	{
		"url": "http://speedtest1.teknikbyran.com:8080/speedtest/upload.php",
		"lat": "59.4833",
		"lon": "18.3000",
		"distance": 974,
		"name": "Akersberga",
		"country": "Sweden",
		"cc": "SE",
		"sponsor": "Teknikbyran i Sverige AB",
		"id": "4425",
		"preferred": 0,
		"https_functional": 1,
		"host": "speedtest1.teknikbyran.com.prod.hosts.ooklaserver.net:8080"
	},
	{
		"url": "http://sp1.kli.lt:8080/speedtest/upload.php",
		"lat": "56.3092",
		"lon": "22.3415",
		"distance": 981,
		"name": "Mazeikiai",
		"country": "Lithuania",
		"cc": "LT",
		"sponsor": "UAB \"Besmegeniai\"",
		"id": "12638",
		"preferred": 0,
		"https_functional": 1,
		"host": "sp1.kli.lt.prod.hosts.ooklaserver.net:8080"
	},
	{
		"url": "http://topnet.lt:8080/speedtest/upload.php",
		"lat": "55.9833",
		"lon": "22.9167",
		"distance": 993,
		"name": "Kursenai",
		"country": "Lithuania",
		"cc": "LT",
		"sponsor": "UAB TOPNET",
		"id": "24805",
		"preferred": 0,
		"https_functional": 1,
		"host": "topnet.lt:8080"
	},
	{
		"url": "https://speed.abissnet.al:8080/speedtest/upload.php",
		"lat": "41.3300",
		"lon": "19.8200",
		"distance": 996,
		"name": "Tirana",
		"country": "Albania",
		"cc": "AL",
		"sponsor": "Abissnet",
		"id": "27986",
		"preferred": 0,
		"https_functional": 1,
		"host": "speed.abissnet.al:8080"
	},
	{
		"url": "https://speedtest.splius.lt:8080/speedtest/upload.php",
		"lat": "55.9349",
		"lon": "23.3137",
		"distance": 1006,
		"name": "Siauliai",
		"country": "Lithuania",
		"cc": "LT",
		"sponsor": "Splius, UAB",
		"id": "47045",
		"preferred": 0,
		"https_functional": 1,
		"host": "speedtest.splius.lt:8080"
	},
	{
		"url": "https://speed-kaunas.telia.lt:8080/speedtest/upload.php",
		"lat": "54.9000",
		"lon": "23.9333",
		"distance": 1007,
		"name": "Kaunas",
		"country": "Lithuania",
		"cc": "LT",
		"sponsor": "Telia Lietuva, AB",
		"id": "1437",
		"preferred": 0,
		"https_functional": 1,
		"host": "speed-kaunas.telia.lt:8080"
	},
	{
		"url": "http://speedtest.kis.lt:8080/speedtest/upload.php",
		"lat": "54.9000",
		"lon": "23.9333",
		"distance": 1007,
		"name": "Kaunas",
		"country": "Lithuania",
		"cc": "LT",
		"sponsor": "UAB Kauno interneto sistemos",
		"id": "38969",
		"preferred": 0,
		"https_functional": 1,
		"host": "speedtest.kis.lt.prod.hosts.ooklaserver.net:8080"
	},
	{
		"url": "http://inkusat.eneamertiri.com:8080/speedtest/upload.php",
		"lat": "40.9015",
		"lon": "20.6556",
		"distance": 1049,
		"name": "Pogradec",
		"country": "Albania",
		"cc": "AL",
		"sponsor": "Tv Kabllor Inkusat",
		"id": "55367",
		"preferred": 0,
		"https_functional": 1,
		"host": "inkusat.eneamertiri.com.prod.hosts.ooklaserver.net:8080"
	},
	{
		"url": "https://speed-vilnius.telia.lt:8080/speedtest/upload.php",
		"lat": "54.6833",
		"lon": "25.2833",
		"distance": 1055,
		"name": "Vilnius",
		"country": "Lithuania",
		"cc": "LT",
		"sponsor": "Telia Lietuva, AB",
		"id": "1302",
		"preferred": 0,
		"https_functional": 1,
		"host": "speed-vilnius.telia.lt:8080"
	},
	{
		"url": "http://speedtest.internetport.se:8080/speedtest/upload.php",
		"lat": "61.7274",
		"lon": "17.1074",
		"distance": 1058,
		"name": "Hudiksvall",
		"country": "Sweden",
		"cc": "SE",
		"sponsor": "Internetport Sweden AB",
		"id": "31700",
		"preferred": 0,
		"https_functional": 1,
		"host": "speedtest.internetport.se.prod.hosts.ooklaserver.net:8080"
	},
	{
		"url": "http://speedtest.vktv.no:8080/speedtest/upload.php",
		"lat": "63.7506",
		"lon": "11.9169",
		"distance": 1091,
		"name": "Verdal",
		"country": "Norway",
		"cc": "NO",
		"sponsor": "Verdal Kabel-TV",
		"id": "31973",
		"preferred": 0,
		"https_functional": 1,
		"host": "speedtest.vktv.no.prod.hosts.ooklaserver.net:8080"
	},
	{
		"url": "http://svl-frg-speedtest1.bahnhof.net:8080/speedtest/upload.php",
		"lat": "62.3908",
		"lon": "17.3069",
		"distance": 1098,
		"name": "Sundsvall",
		"country": "Sweden",
		"cc": "SE",
		"sponsor": "Bahnhof AB",
		"id": "34608",
		"preferred": 0,
		"https_functional": 1,
		"host": "svl-frg-speedtest1.bahnhof.net.prod.hosts.ooklaserver.net:8080"
	},
	{
		"url": "http://speedtest.netkabel.com.mk:8080/speedtest/upload.php",
		"lat": "41.4333",
		"lon": "22.6333",
		"distance": 1111,
		"name": "Strumica",
		"country": "Macedonia",
		"cc": "MK",
		"sponsor": "trd Net Kabel Strumica",
		"id": "11802",
		"preferred": 0,
		"https_functional": 1,
		"host": "speedtest.netkabel.com.mk.prod.hosts.ooklaserver.net:8080"
	},
	{
		"url": "http://rabatst.iam.ma:8080/speedtest/upload.php",
		"lat": "34.0333",
		"lon": "-6.8333",
		"distance": 1128,
		"name": "Rabat",
		"country": "Morocco",
		"cc": "MA",
		"sponsor": "Maroc Telecom",
		"id": "54524",
		"preferred": 0,
		"https_functional": 1,
		"host": "rabatst.iam.ma.prod.hosts.ooklaserver.net:8080"
	},
	{
		"url": "http://speedtestrabat3.meditel.net.ma:8080/speedtest/upload.php",
		"lat": "34.0333",
		"lon": "-6.8333",
		"distance": 1128,
		"name": "Rabat",
		"country": "Morocco",
		"cc": "MA",
		"sponsor": "Orange",
		"id": "24469",
		"preferred": 0,
		"https_functional": 1,
		"host": "speedtestrabat3.meditel.net.ma.prod.hosts.ooklaserver.net:8080"
	},
	{
		"url": "http://speed.marwan.ma:8080/speedtest/upload.php",
		"lat": "34.0333",
		"lon": "-6.8333",
		"distance": 1128,
		"name": "Rabat",
		"country": "Morocco",
		"cc": "MA",
		"sponsor": "MARWAN",
		"id": "22829",
		"preferred": 0,
		"https_functional": 1,
		"host": "speed.marwan.ma.prod.hosts.ooklaserver.net:8080"
	},
	{
		"url": "http://casablancast.iam.ma:8080/speedtest/upload.php",
		"lat": "33.5333",
		"lon": "-7.5833",
		"distance": 1177,
		"name": "Casablanca",
		"country": "Morocco",
		"cc": "MA",
		"sponsor": "Maroc Telecom",
		"id": "18214",
		"preferred": 0,
		"https_functional": 1,
		"host": "casablancast.iam.ma.prod.hosts.ooklaserver.net:8080"
	},
	{
		"url": "http://speedtest.inwi.co.ma:8080/speedtest/upload.php",
		"lat": "33.5333",
		"lon": "-7.5833",
		"distance": 1177,
		"name": "Casablanca",
		"country": "Morocco",
		"cc": "MA",
		"sponsor": "INWI",
		"id": "6290",
		"preferred": 0,
		"https_functional": 1,
		"host": "speedtest.inwi.co.ma:8080"
	},
	{
		"url": "http://speedtestcasa3.meditel.net.ma:8080/speedtest/upload.php",
		"lat": "33.5333",
		"lon": "-7.5833",
		"distance": 1177,
		"name": "Casablanca",
		"country": "Morocco",
		"cc": "MA",
		"sponsor": "Orange",
		"id": "40703",
		"preferred": 0,
		"https_functional": 1,
		"host": "speedtestcasa3.meditel.net.ma.prod.hosts.ooklaserver.net:8080"
	},
	{
		"url": "http://speedtest.84grams.net:8080/speedtest/upload.php",
		"lat": "63.8258",
		"lon": "20.2630",
		"distance": 1233,
		"name": "Umea",
		"country": "Sweden",
		"cc": "SE",
		"sponsor": "84 Grams AB",
		"id": "29975",
		"preferred": 0,
		"https_functional": 1,
		"host": "speedtest.84grams.net.prod.hosts.ooklaserver.net:8080"
	},
	{
		"url": "http://speedtest2.ltc.net.ly:8080/speedtest/upload.php",
		"lat": "32.7630",
		"lon": "12.7365",
		"distance": 1237,
		"name": "Az Zawiyh",
		"country": "Libya",
		"cc": "LY",
		"sponsor": "ABRAJ LIBYA LTC",
		"id": "28958",
		"preferred": 0,
		"https_functional": 1,
		"host": "speedtest2.ltc.net.ly.prod.hosts.ooklaserver.net:8080"
	},
	{
		"url": "http://speed1.zastava.net.ua:8080/speedtest/upload.php",
		"lat": "46.4667",
		"lon": "30.7333",
		"distance": 1325,
		"name": "Odessa",
		"country": "Ukraine",
		"cc": "UA",
		"sponsor": "3ACTABA.NET",
		"id": "10899",
		"preferred": 0,
		"https_functional": 1,
		"host": "speed1.zastava.net.ua.prod.hosts.ooklaserver.net:8080"
	},
	{
		"url": "http://st-manisa-1.turksatkablo.com.tr:8080/speedtest/upload.php",
		"lat": "38.6140",
		"lon": "27.4296",
		"distance": 1431,
		"name": "Manisa",
		"country": "Turkey",
		"cc": "TR",
		"sponsor": "Turksat Kablonet",
		"id": "20981",
		"preferred": 0,
		"https_functional": 1,
		"host": "st-manisa-1.turksatkablo.com.tr.prod.hosts.ooklaserver.net:8080"
	},
	{
		"url": "https://speedtest.bursabil.com.tr:8080/speedtest/upload.php",
		"lat": "40.1833",
		"lon": "29.0667",
		"distance": 1438,
		"name": "Bursa",
		"country": "Turkey",
		"cc": "TR",
		"sponsor": "Bursabil Teknoloji A.Ş.",
		"id": "24703",
		"preferred": 0,
		"https_functional": 1,
		"host": "speedtest.bursabil.com.tr:8080"
	},
	{
		"url": "http://st-zonguldakeregli-1.turksatkablo.com.tr:8080/speedtest/upload.php",
		"lat": "41.2799",
		"lon": "31.4203",
		"distance": 1503,
		"name": "Ereğli",
		"country": "Turkey",
		"cc": "TR",
		"sponsor": "Turksat Kablonet",
		"id": "21102",
		"preferred": 0,
		"https_functional": 1,
		"host": "st-zonguldakeregli-1.turksatkablo.com.tr.prod.hosts.ooklaserver.net:8080"
	},
	{
		"url": "http://speedtest.crimeastar.net:8080/speedtest/upload.php",
		"lat": "44.7461",
		"lon": "33.8616",
		"distance": 1508,
		"name": "Bakhchisaray",
		"country": "Ukraine",
		"cc": "UA",
		"sponsor": "CDIT GIGABYTE LTD.",
		"id": "11824",
		"preferred": 0,
		"https_functional": 1,
		"host": "speedtest.crimeastar.net:8080"
	}
]